<?xml version="1.0" encoding="UTF-8"?>
<kml xmlns="http://www.opengis.net/kml/2.2">
<Document>
    <Placemark>
        <name>Blinded Napoleon</name>
        <description/>
        <TimeStamp>
            <when>2018</when>
        </TimeStamp>
        <Point>
            <coordinates>2.3514992, 48.8566101</coordinates>
        </Point>
    </Placemark>
    <Placemark>
        <name>Bomb Hugger</name>
        <description/>
        <TimeStamp>
            <when>2003</when>
        </TimeStamp>
        <Point>
            <coordinates>27.8546, 33.01529</coordinates>
        </Point>
    </Placemark>
    <Placemark>
        <name>Box Cutter Rat</name>
        <description/>
        <TimeStamp>
            <when>2018</when>
        </TimeStamp>
        <Point>
            <coordinates>2.3514992, 48.8566101</coordinates>
        </Point>
    </Placemark>
    <Placemark>
        <name>Bronx Zoo</name>
        <description/>
        <TimeStamp>
            <when>2013</when>
        </TimeStamp>
        <Point>
            <coordinates>-73.9265212, 40.8295828</coordinates>
        </Point>
    </Placemark>
    <Placemark>
        <name>Bubble Slide Girl</name>
        <description/>
        <TimeStamp>
            <when>2008-02</when>
        </TimeStamp>
        <Point>
            <coordinates>27.8546, 33.0292</coordinates>
        </Point>
    </Placemark>
    <Placemark>
        <name>Cameraman and Flower</name>
        <description/>
        <TimeStamp>
            <when>2010-07</when>
        </TimeStamp>
        <Point>
            <coordinates>118.2437, 34.0522</coordinates>
        </Point>
    </Placemark>
    <Placemark>
        <name>Cash Machine Girl</name>
        <description/>
        <TimeStamp>
            <when>2007</when>
        </TimeStamp>
        <Point>
            <coordinates>-0.083599, 51.654827</coordinates>
        </Point>
    </Placemark>
    <Placemark>
        <name>Child Soldier</name>
        <description/>
        <TimeStamp>
            <when>2011</when>
        </TimeStamp>
        <Point>
            <coordinates>-118.243683, 34.052235</coordinates>
        </Point>
    </Placemark>
    <Placemark>
        <name>Choose Your Weapon</name>
        <description/>
        <TimeStamp>
            <when>2002</when>
        </TimeStamp>
        <Point>
            <coordinates>0, 0</coordinates>
        </Point>
    </Placemark>
    <Placemark>
        <name>Don't Forget your Scraf</name>
        <description/>
        <TimeStamp>
            <when>2009-05</when>
        </TimeStamp>
        <Point>
            <coordinates>2.5879, 51.4545</coordinates>
        </Point>
    </Placemark>
    <Placemark>
        <name>Drunk Angel</name>
        <description/>
        <TimeStamp>
            <when>2014-02</when>
        </TimeStamp>
        <Point>
            <coordinates>0.1278, 51.5074</coordinates>
        </Point>
    </Placemark>
    <Placemark>
        <name>Follow your Dreams - Canceled</name>
        <description/>
        <TimeStamp>
            <when>2011</when>
        </TimeStamp>
        <Point>
            <coordinates>71.0624, 42.3501</coordinates>
        </Point>
    </Placemark>
    <Placemark>
        <name>Fridge Kite</name>
        <description/>
        <TimeStamp>
            <when>2012-08</when>
        </TimeStamp>
        <Point>
            <coordinates>90.0715, 29.9511</coordinates>
        </Point>
    </Placemark>
    <Placemark>
        <name>Gangsta Rat</name>
        <description/>
        <TimeStamp>
            <when>2006</when>
        </TimeStamp>
        <Point>
            <coordinates>0.0898, 51.5276</coordinates>
        </Point>
    </Placemark>
    <Placemark>
        <name>Girl with Balloon</name>
        <description/>
        <TimeStamp>
            <when>2002</when>
        </TimeStamp>
        <Point>
            <coordinates>-0.116944, 51.508611</coordinates>
        </Point>
    </Placemark>
    <Placemark>
        <name>Girl with Skipping Rope</name>
        <description/>
        <TimeStamp>
            <when>2007-01</when>
        </TimeStamp>
        <Point>
            <coordinates>73.9442, 40.6782</coordinates>
        </Point>
    </Placemark>
    <Placemark>
        <name>Go Flock Yourself</name>
        <description/>
        <TimeStamp>
            <when>2018</when>
        </TimeStamp>
        <Point>
            <coordinates>2.3514992, 48.8566101</coordinates>
        </Point>
    </Placemark>
    <Placemark>
        <name>Gorilla Artist</name>
        <description/>
        <TimeStamp>
            <when>2008</when>
        </TimeStamp>
        <Point>
            <coordinates>0.065652, 51.30702</coordinates>
        </Point>
    </Placemark>
    <Placemark>
        <name>Graffiti Is A Crime</name>
        <description/>
        <TimeStamp>
            <when>2013</when>
        </TimeStamp>
        <Point>
            <coordinates>-73.9921624, 40.7151989</coordinates>
        </Point>
    </Placemark>
    <Placemark>
        <name>Hammer Boy</name>
        <description/>
        <TimeStamp>
            <when>2013-10</when>
        </TimeStamp>
        <Point>
            <coordinates>-73.585303, 40.47393</coordinates>
        </Point>
    </Placemark>
    <Placemark>
        <name>I want change</name>
        <description/>
        <TimeStamp>
            <when>2015</when>
        </TimeStamp>
        <Point>
            <coordinates>144.96299999999997, 37.8142</coordinates>
        </Point>
    </Placemark>
    <Placemark>
        <name>Injured Buddha</name>
        <description/>
        <TimeStamp>
            <when>2008-05</when>
        </TimeStamp>
        <Point>
            <coordinates>7.017369, 43.552849</coordinates>
        </Point>
    </Placemark>
    <Placemark>
        <name>Interest in People</name>
        <description/>
        <TimeStamp>
            <when>2010-05</when>
        </TimeStamp>
        <Point>
            <coordinates>79.3832, 43.6532</coordinates>
        </Point>
    </Placemark>
    <Placemark>
        <name>Israeli-Palestinian Pillow Fight</name>
        <description/>
        <TimeStamp>
            <when>2017</when>
        </TimeStamp>
        <Point>
            <coordinates>35.2031564, 31.7193016</coordinates>
        </Point>
    </Placemark>
    <Placemark>
        <name>Javelin Thrower</name>
        <description/>
        <TimeStamp>
            <when>2012-07</when>
        </TimeStamp>
        <Point>
            <coordinates>0.0166, 51.5433</coordinates>
        </Point>
    </Placemark>
    <Placemark>
        <name>Keep your Coins, I want Change</name>
        <description/>
        <TimeStamp>
            <when>2004-10</when>
        </TimeStamp>
        <Point>
            <coordinates>144.9631, 37.8136</coordinates>
        </Point>
    </Placemark>
    <Placemark>
        <name>Looting Soldier</name>
        <description/>
        <TimeStamp>
            <when>2007-09</when>
        </TimeStamp>
        <Point>
            <coordinates>90.0715, 29.9511</coordinates>
        </Point>
    </Placemark>
    <Placemark>
        <name>Naplam Girl</name>
        <description/>
        <TimeStamp>
            <when>2004-09</when>
        </TimeStamp>
        <Point>
            <coordinates>0.1278, 51.5074</coordinates>
        </Point>
    </Placemark>
    <Placemark>
        <name>Old Woman</name>
        <description/>
        <TimeStamp>
            <when>2006-08</when>
        </TimeStamp>
        <Point>
            <coordinates>118.2437, 34.0522</coordinates>
        </Point>
    </Placemark>
    <Placemark>
        <name>Seal Mural</name>
        <description/>
        <TimeStamp>
            <when>2018-05-20</when>
        </TimeStamp>
        <Point>
            <coordinates>-73.965400, 40.627400</coordinates>
        </Point>
    </Placemark>
    <Placemark>
        <name>Season's Greetings</name>
        <description/>
        <TimeStamp>
            <when>2018-12-19</when>
        </TimeStamp>
        <Point>
            <coordinates>-3.79859, 51.59055</coordinates>
        </Point>
    </Placemark>
    <Placemark>
        <name>Security Guard with Pink Balloon</name>
        <description/>
        <TimeStamp>
            <when>2010-03</when>
        </TimeStamp>
        <Point>
            <coordinates>-79.384293, 43.653908</coordinates>
        </Point>
    </Placemark>
    <Placemark>
        <name>Slave Labour</name>
        <description/>
        <TimeStamp>
            <when>2012-03</when>
        </TimeStamp>
        <Point>
            <coordinates>0.1278, 51.5074</coordinates>
        </Point>
    </Placemark>
    <Placemark>
        <name>Snorting Copper</name>
        <description/>
        <TimeStamp>
            <when>2005</when>
        </TimeStamp>
        <Point>
            <coordinates>-0.133869, 51.51001</coordinates>
        </Point>
    </Placemark>
    <Placemark>
        <name>Soldiers Painting CND Sign</name>
        <description/>
        <TimeStamp>
            <when>2005-06</when>
        </TimeStamp>
        <Point>
            <coordinates>0.1278, 51.5074</coordinates>
        </Point>
    </Placemark>
    <Placemark>
        <name>Sorry, The Lifestyle you Ordered</name>
        <description/>
        <TimeStamp>
            <when>2011-12</when>
        </TimeStamp>
        <Point>
            <coordinates>0.1278, 51.5074</coordinates>
        </Point>
    </Placemark>
    <Placemark>
        <name>Stop and Search</name>
        <description/>
        <TimeStamp>
            <when>2007-11</when>
        </TimeStamp>
        <Point>
            <coordinates>35.200657, 31.705791</coordinates>
        </Point>
    </Placemark>
    <Placemark>
        <name>Sweep it Under the Carpet</name>
        <description/>
        <TimeStamp>
            <when>2006</when>
        </TimeStamp>
        <Point>
            <coordinates>-0.083699, 51.654815</coordinates>
        </Point>
    </Placemark>
    <Placemark>
        <name>Swing Girl</name>
        <description/>
        <TimeStamp>
            <when>2010-04</when>
        </TimeStamp>
        <Point>
            <coordinates>118.2437, 34.0522</coordinates>
        </Point>
    </Placemark>
    <Placemark>
        <name>Take this Society</name>
        <description/>
        <TimeStamp>
            <when>2011-04</when>
        </TimeStamp>
        <Point>
            <coordinates>0.1278, 51.5074</coordinates>
        </Point>
    </Placemark>
    <Placemark>
        <name>Tap Phoned</name>
        <description/>
        <TimeStamp>
            <when>2011-07</when>
        </TimeStamp>
        <Point>
            <coordinates>0.1278, 51.5074</coordinates>
        </Point>
    </Placemark>
    <Placemark>
        <name>The Mild Mild West</name>
        <description/>
        <TimeStamp>
            <when>1999</when>
        </TimeStamp>
        <Point>
            <coordinates>-2.589352, 51.462783</coordinates>
        </Point>
    </Placemark>
    <Placemark>
        <name>Thug for Life Bunny</name>
        <description/>
        <TimeStamp>
            <when>2009-08</when>
        </TimeStamp>
        <Point>
            <coordinates>0.1278, 51.5074</coordinates>
        </Point>
    </Placemark>
    <Placemark>
        <name>Well, Hung Lover</name>
        <description/>
        <TimeStamp>
            <when>2006-04-09</when>
        </TimeStamp>
        <Point>
            <coordinates>-2.6011, 51.4534</coordinates>
        </Point>
    </Placemark>
</Document>
</kml>